{

"data": [
    {
        "id": 1,
        "chargerName": "Technopolis Sairaalaparkki Parkkihalli",
        "AddressLine1": "Kiviharjuntie 5",
        "Town": "Kontinkangas",
        "Latitude": 65.0094,
        "Longitude": 25.51445,
        "Comments": "Over 2 kW, usually non-domestic socket type",
        "Title": "Level 2 : Medium (Over 2kW)",
        "Type": "Free",
        "Code": 3430,
        "Status": "Free"
    },
    {
        "id": 2,
        "chargerName": "Oulun Energian toimitalon piha",
        "Latitude": 65.017505,
        "Longitude": 25.481491,
        "AddressLine1": "Kasarmintie 6",
        "Town": "Raksila",
        "Comments": "Mode 1",
        "Title": "Level 2 : Medium (Over 2kW)",
        "Code": 3432,
        "Type": "Normal",
        "Status": "Taken"
    },
    {
        "id": 3,
        "chargerName": "Lapland Hotels Oulu",
        "Latitude": 65.015344,
        "Longitude": 25.475991,
        "AddressLine1": "Kirkkokatu 3",
        "Town": "Oulu",
        "Comments": "Tesla (Model S/X)",
        "Title": "Level 2 : Medium (Over 2kW)",
        "Code": 1235,
        "Type": "Free",
        "Status": "Free"
    },
    {
        "id": 4,
        "chargerName": "Kivisydän",
        "Latitude": 65.01227,
        "Longitude": 25.47637,
        "AddressLine1": "Hallituskatu 20",
        "Town": "Oulu Keskus",
        "Comments": "Alternating Current - Three Phase",
        "Title": "Level 2 : Medium (Over 2kW)",
        "Code": 3431,
        "Type": "Fast",
        "Status": "Free"
    },
    {
        "id": 5,
        "chargerName": "P-Stockmann / Oulu",
        "Latitude": 65.01134,
        "Longitude": 25.46974,
        "AddressLine1": "Kirkkokatu 14",
        "Town": "Oulu Keskus",
        "Comments": "Mode 1",
        "Title": "Level 2 : Medium (Over 2kW)",
        "Code": 1234,
        "Type": "Free",
        "Status": "Taken"
    },
    {
        "id": 6,
        "chargerName": "ABC Prisma Limingantulli",
        "Latitude": 64.99615,
        "Longitude": 25.46193,
        "AddressLine1": "Nuottasaarentie 1",
        "Town": "Äimärautio",
        "Comments": "CHAdeMO",
        "Title": "Level 2 : Medium (Over 2kW)",
        "Code": 1134,
        "Type": "Free",
        "Status": "Free"
    },
    {
        "id": 7,
        "chargerName": "Tyrnäväntie",
        "Latitude": 64.9977160090185,
        "Longitude": 25.4578675959101,
        "AddressLine1": "Tyrnäväntie",
        "Town": "Oulu",
        "Comments": "Over 2 kW, usually non-domestic socket type",
        "Title": "Level 2 : Medium (Over 2kW)",
        "Code": 0001,
        "Type": "Normal",
        "Status": "Free"
    },
    {
        "id": 8,
        "chargerName": "ABC Prisma Limingantulli",
        "Latitude": 64.9941428394985,
        "Longitude": 25.461836250206016,
        "AddressLine1": "Nuottasaarentie",
        "Town": "Oulu",
        "Comments": "Over 2 kW, usually non-domestic socket type",
        "Title": "Level 2 : Medium (Over 2kW)",
        "Code": 0002,
        "Type": "Nomal",
        "Status": "Taken"
    },
    {
        "id": 9,
        "chargerName": "Nissan Peugeot Seat",
        "Latitude": 64.99685,
        "Longitude": 25.45798,
        "AddressLine1": "Tyrnäväntie 7",
        "Town": "Äimärautio",
        "Comments": "Mode 4",
        "Title": "Level 2 : Medium (Over 2kW)",
        "Code": 0003,
        "Type": "Normal",
        "Status": "Free"
    },
    {
        "id": 10,
        "chargerName": "Laakeritie",
        "Latitude": 65.03913063881376,
        "Longitude": 25.554032951438444,
        "AddressLine1": "Laakeritie",
        "Town": "Oulu ",
        "Comments": "Level 3:  High (Over 40kW)",
        "Title": "Level 2 : Medium (Over 2kW)",
        "Code": 0004,
        "Type": "Fast",
        "Status": "Free"
    },
    {
        "id": 11,
        "chargerName": "Satamatie",
        "Latitude": 65.0352778076126,
        "Longitude": 25.4418944419275,
        "AddressLine1": "Satamatie, Toppila",
        "Town": "Oulu",
        "Comments": "IEC 62196-2 Type 2",
        "Title": "Level 2 : Medium (Over 2kW)",
        "Code": 0005,
        "Type": "Fast",
        "Status": "Free"
    },
    {
       "id": 12,
        "chargerName": "Delta Auto - Ensto Chago eFill",
        "Latitude": 64.96293,
        "Longitude": 25.51151,
        "AddressLine1": "Pauketie 4",
        "Town": "Kaakkuri",
        "Comments": "Alternating Current - Three Phase",
        "Title": "Level 2 : Medium (Over 2kW)",
        "Code": 0006,
        "Type": "Fast",
        "Status": "Free"
    },
    {
        "id": 13,
        "chargerName": "K-Citymarket Oulu Kaakkuri",
        "Latitude": 64.9571822924366,
        "Longitude": 25.5284397050084,
        "AddressLine1": "Metsokankaantie 5",
        "Town": "Mäntylä",
        "Comments": "IEC 62196-3 Configuration AA",
        "Title": "Level 2 : Medium (Over 2kW)",
        "Code": 0007,
        "Type": "Fast",
        "Status": "Free"
    },
    {
        "id": 14,
        "chargerName": "VTT konttori Linnanmaalla",
        "Latitude": 65.05661,
        "Longitude": 25.45855,
        "AddressLine1": "Kaitoväylä 1",
        "Town": "Oulu Keskus",
        "Comments": "Over 2 kW, usually non-domestic socket type",
        "Title": "Level 2 : Medium (Over 2kW)",
        "Code": 0008,
        "Type": "Normal",
        "Status": "Taken"
    },
    {
        "id": 15,
        "chargerName": "Pilot Business Park",
        "Latitude": 64.93118044,
        "Longitude": 25.3854529,
        "AddressLine1": "lentokatu 2",
        "Town": "Oulunsalo Keskus",
        "Comments": "Over 2 kW, usually non-domestic socket type",
        "Title": "Level 2 : Medium (Over 2kW)",
        "Code": 0009,
        "Type": "Normal",
        "Status": "Free"
    },
    {
        "id": 16,
        "chargerName": "McDonalds Kempele",
        "Latitude": 64.90386049332974,
        "Longitude":25.542823900866097,
        "AddressLine1": "Myllytie 1",
        "Town": "Kempele",
        "Comments": "Over 2 kW, usually non-domestic socket type",
        "Title": "Level 2 : Medium (Over 2kW)",
        "Code": 0010,
        "Type": "Free",
        "Status": "Free"
    },
    {
        "id": 17,
        "chargerName": "Kempeleen Ekokortteli",
        "Latitude": 64.90396,
        "Longitude": 25.54693,
        "AddressLine1": "Koivikkohaka 9",
        "Town": "Honkanen",
        "Comments": "Over 2 kW, usually non-domestic socket type",
        "Title": "40KW and Higher",
        "Code": 0011,
        "Type": "Free",
        "Status": "Taken"
    },
    {
        "id": 18,
        "chargerName": "OSAO Haukipudas F138h",
        "Latitude": 65.19391,
        "Longitude": 25.41201,
        "AddressLine1": "Asemakyläntie 5",
        "Town": "Haukipudas Asemanseutu",
        "Comments": "Operational",
        "Title": "Level 2 : Medium (Over 2kW)",
        "Code": 0012,
        "Type": "Normal",
        "Status": "Free"
    },
    {
        "id": 19,
        "chargerName": "Hesburger Liminka",
        "Latitude": 64.80740637283958,
        "Longitude": 25.45862651878167,
        "AddressLine1": "Yritystie 1",
        "Town": "Liminka",
        "Comments": "Direct Current",
        "Title": "Level 2 : Medium (Over 2kW)",
        "Code": 0013,
        "Type": "Free",
        "Status": "Free"
    },
    {
        "id": 20,
        "chargerName": "Micropolis, parkkipaikka",
        "Latitude":  65.28825,
        "Longitude": 25.3753,
        "AddressLine1": "Piisilta 1",
        "Town": "Ii Keskus",
        "Comments": "Over 2 kW, usually non-domestic socket type",
        "Title": "Level 2 : Medium (Over 2kW)",
        "Code": 1234,
        "Type": "Fast",
        "Status": "Free"
    },
]
}